City_ID,City,Lat,Lng,Max Temp,Humidity,Cloudiness,Wind Speed,Country,Date
0,waitangi,-43.9535,-176.5597,10.12,69,100,5.94,NZ,1697555085
1,porto uniao,-26.2381,-51.0783,22.47,84,100,0.99,BR,1697555464
2,blackmans bay,-43.0167,147.3167,8.07,84,38,2.19,AU,1697555464
3,puerto ayora,-0.7393,-90.3518,28.98,89,96,3.13,EC,1697555116
4,edinburgh of the seven seas,-37.0676,-12.3116,12.47,68,100,4.16,SH,1697555100
5,ushuaia,-54.8,-68.3,11.79,56,0,3.6,AR,1697554893
6,crane,31.3974,-102.3501,17.85,36,0,5.44,US,1697555215
7,chekmagush,55.1319,54.6556,7.98,66,99,9.34,RU,1697555465
8,puerto natales,-51.7236,-72.4875,14.25,47,75,12.35,CL,1697555465
9,port-aux-francais,-49.35,70.2167,2.22,78,89,10.14,TF,1697555466
10,kayyerkan,69.3786,87.7439,-0.39,100,100,4.31,RU,1697555466
11,amga,60.8953,131.9608,-3.34,52,100,3.13,RU,1697555203
12,thurgoona,-36.0451,146.9919,9.81,100,0,1.34,AU,1697555466
13,alofi,-19.0595,-169.9187,22.84,73,67,10.71,NU,1697555467
14,vorgashor,67.5833,63.95,2.37,98,100,1.91,RU,1697555111
15,tiksi,71.6872,128.8694,-16.54,100,80,0.79,RU,1697555077
16,muang phon-hong,18.4928,102.4172,24.35,90,82,0.33,LA,1697555467
17,san patricio,28.017,-97.5169,21.03,44,0,2.3,US,1697555438
18,magadan,59.5667,150.8,-2.32,75,8,4.92,RU,1697554971
19,bethel,41.3712,-73.414,15.3,70,100,1.54,US,1697555468
20,margaret river,-33.95,115.0667,17.0,81,99,5.21,AU,1697554948
21,badiyah,22.45,58.8,31.43,31,59,3.46,OM,1697555468
22,new norfolk,-42.7826,147.0587,8.73,95,68,1.64,AU,1697555110
23,ziro,27.6333,93.8333,9.65,90,5,0.9,IN,1697555469
24,adamstown,-25.066,-130.1015,21.66,89,87,3.79,PN,1697555082
25,invercargill,-46.4,168.35,6.12,78,34,3.13,NZ,1697554836
26,ancud,-41.8697,-73.8203,11.99,63,17,1.33,CL,1697555090
27,albany,42.6001,-73.9662,13.43,73,100,1.63,US,1697555227
28,boende,-0.2167,20.8667,28.17,67,100,0.78,CD,1697554950
29,port mathurin,-19.6833,63.4167,24.39,86,3,4.34,MU,1697554971
30,hamilton,39.1834,-84.5333,12.36,82,100,3.6,US,1697555471
31,port elizabeth,-33.918,25.5701,20.17,74,0,8.23,ZA,1697554972
32,yesilhisar,38.3497,35.0867,16.2,50,30,2.1,TR,1697555472
33,kavaratti,10.5669,72.642,28.63,67,88,1.44,IN,1697555472
34,grytviken,-54.2811,-36.5092,2.4,84,99,4.31,GS,1697555473
35,ust-nera,64.5667,143.2,-20.54,94,84,1.31,RU,1697554995
36,kaliua,-5.0606,31.7936,30.93,32,91,1.33,TZ,1697555473
37,sayat,38.7839,63.8803,22.15,20,100,3.86,TM,1697555474
38,kapuskasing,49.4169,-82.4331,6.88,73,0,1.4,CA,1697555402
39,vanersborg,58.3807,12.3234,11.99,76,100,7.2,SE,1697555474
40,zhosaly,45.4878,64.0781,14.06,38,0,4.07,KZ,1697555475
41,anadyr,64.75,177.4833,-4.72,92,40,3.0,RU,1697555475
42,medicine hat,50.0501,-110.6683,13.55,59,68,3.58,CA,1697555460
43,chernyshevskiy,63.0128,112.4714,-3.75,97,97,2.15,RU,1697554958
44,malango,-2.9627,119.9001,19.71,94,62,0.7,ID,1697555476
45,broken hill,-31.95,141.4333,13.69,35,0,4.06,AU,1697554883
46,vila franca do campo,37.7167,-25.4333,22.23,71,70,4.68,PT,1697555196
47,kone,-21.0595,164.8658,21.95,98,100,1.71,NC,1697555188
48,kerema,-7.9631,145.7785,25.13,91,100,1.94,PG,1697555477
49,sakete,6.7362,2.6587,25.2,87,100,1.85,BJ,1697555477
50,ribeira grande,38.5167,-28.7,22.22,78,75,6.17,PT,1697555478
51,argo,37.6333,22.7333,22.1,71,44,3.13,GR,1697555100
52,stanley,54.868,-1.6985,12.1,86,20,3.09,GB,1697554982
53,wailua homesteads,22.0669,-159.378,22.73,78,0,2.05,US,1697554965
54,bredasdorp,-34.5322,20.0403,22.63,61,0,2.79,ZA,1697555080
55,roma,43.2128,-75.4557,12.99,78,75,2.57,US,1697555479
56,vila velha,-20.3297,-40.2925,30.97,68,20,6.69,BR,1697555223
57,afaahiti,-17.75,-149.2833,22.93,85,83,7.02,PF,1697555112
58,aykhal,66.0,111.5,-7.74,98,86,2.24,RU,1697555480
59,atafu village,-8.5421,-172.5159,28.31,75,45,5.04,TK,1697554987
60,buurhakaba,2.8026,44.0781,31.63,46,100,8.02,SO,1697555480
61,jamestown,42.097,-79.2353,8.9,99,100,2.06,US,1697554990
62,gizo,-8.103,156.8419,27.33,80,100,2.48,SB,1697555481
63,merida,20.9667,-89.6167,26.68,61,75,7.6,MX,1697555481
64,yei,4.095,30.6779,24.87,82,97,0.38,SS,1697555481
65,chibougamau,49.9168,-74.3659,7.7,60,16,1.6,CA,1697555481
66,lethem,3.3803,-59.7968,33.96,46,38,2.88,GY,1697555482
67,huayin,34.5675,110.0921,17.17,74,99,2.91,CN,1697555482
68,sawakin,19.1059,37.3321,29.58,63,66,5.37,SD,1697555482
69,olonkinbyen,70.9221,-8.7187,0.11,81,99,5.58,SJ,1697554963
70,avarua,-21.2078,-159.775,22.03,73,20,3.09,CK,1697554955
71,patnanungan,14.7833,122.1833,27.23,83,27,6.58,PH,1697555483
72,buka,40.8108,69.1986,16.29,26,0,2.71,UZ,1697555483
73,okhotsk,59.3833,143.3,-5.49,70,3,5.88,RU,1697554992
74,afif,23.9065,42.9172,29.4,15,3,3.39,SA,1697555219
75,vernal,40.4555,-109.5287,13.7,52,0,1.54,US,1697555421
76,hermanus,-34.4187,19.2345,19.96,70,0,0.66,ZA,1697554975
77,laurel bay,32.4502,-80.7848,17.98,55,0,4.12,US,1697555484
78,west island,-12.1568,96.8225,25.99,89,75,7.2,CC,1697555045
79,celestun,20.8667,-90.4,26.32,57,50,6.04,MX,1697555485
80,lowestoft,52.4752,1.7516,14.45,68,27,8.88,GB,1697555485
81,constantia,44.1833,28.65,14.38,50,100,3.67,RO,1697554919
82,padang,-0.9492,100.3543,26.03,91,56,0.58,ID,1697555485
83,fort bragg,35.139,-79.006,17.68,66,85,2.24,US,1697554983
84,hotan,37.0997,79.9269,15.15,27,93,3.45,CN,1697555486
85,bilibino,68.0546,166.4372,-15.02,99,100,1.33,RU,1697555114
86,georgetown,5.4112,100.3354,26.97,86,20,1.54,MY,1697554930
87,rongelap,11.1635,166.8941,28.32,75,60,6.15,MH,1697555487
88,lebu,-37.6167,-73.65,14.24,62,0,7.07,CL,1697555094
89,puerto rosario,-24.45,-57.0833,41.4,19,95,5.08,PY,1697555487
90,udachny,66.4167,112.4,-6.97,92,91,4.04,RU,1697555154
91,dois vizinhos,-25.7336,-53.0572,32.52,42,63,3.36,BR,1697555488
92,port-vila,-17.7338,168.3219,22.78,94,20,1.03,VU,1697555219
93,ione,38.3527,-120.9327,22.37,45,0,2.57,US,1697555488
94,laizhou,37.1717,119.9214,17.79,76,100,5.27,CN,1697555489
95,saint-pierre,-21.3393,55.4781,24.82,78,100,1.54,RE,1697555489
96,tura,25.5198,90.2201,19.83,91,0,1.3,IN,1697555016
97,luderitz,-26.6481,15.1594,21.05,61,5,5.41,NA,1697555079
98,holmsund,63.706,20.3641,2.97,75,0,2.24,SE,1697555489
99,kodiak,57.79,-152.4072,7.73,87,100,3.6,US,1697555085
100,playas,-2.6333,-80.3833,24.83,81,95,2.29,EC,1697555490
101,arraial do cabo,-22.9661,-42.0278,29.92,62,0,5.66,BR,1697555090
102,talnakh,69.4865,88.3972,-0.44,94,100,2.89,RU,1697555081
103,tamiahua,21.2667,-97.45,22.16,65,67,4.45,MX,1697555491
104,praia da vitoria,38.7333,-27.0667,24.14,64,20,5.19,PT,1697555030
105,along,28.1667,94.7667,18.4,97,1,1.16,IN,1697554910
106,willowmore,-33.2926,23.4895,24.93,20,0,1.74,ZA,1697555491
107,gannan,47.9147,123.5031,9.16,41,100,4.71,CN,1697555492
108,pacocha,-17.5833,-71.3333,20.08,73,75,3.6,PE,1697555194
109,cockburn town,21.4612,-71.1419,29.17,68,11,0.79,TC,1697555492
110,sur,22.5667,59.5289,29.91,61,17,1.67,OM,1697555492
111,singarayakonda,15.25,80.0333,28.12,66,25,3.55,IN,1697555492
112,carnarvon,-24.8667,113.6333,23.83,53,0,9.31,AU,1697555182
113,yandev,7.3667,9.05,30.28,61,99,2.48,NG,1697555493
114,papatowai,-46.5619,169.4708,3.91,81,54,4.2,NZ,1697555073
115,palangkaraya,-2.2,113.8333,26.32,83,84,0.97,ID,1697555494
116,griffith,41.5284,-87.4237,12.86,86,0,1.54,US,1697554957
117,mhlume,-26.0333,31.85,17.73,75,100,6.07,SZ,1697555495
118,scone,56.4194,-3.4051,10.68,82,100,1.34,GB,1697555495
119,ta`u,-14.2336,-169.5144,25.68,83,86,8.09,AS,1697555495
120,victorica,-36.2151,-65.4359,21.3,21,18,4.25,AR,1697555496
121,sinabang,2.4803,96.3801,25.48,84,100,0.33,ID,1697555136
122,utrik,11.2278,169.8474,28.12,77,45,6.96,MH,1697555108
123,qaqortoq,60.7167,-46.0333,0.82,69,62,2.39,GL,1697554979
124,colonia,50.9333,6.95,14.47,51,0,2.57,DE,1697555172
125,bubaque,11.2833,-15.8333,27.81,74,9,2.27,GW,1697555119
126,thompson,55.7435,-97.8558,-0.91,100,75,1.03,CA,1697554986
127,callao,-12.0667,-77.15,22.07,82,100,4.63,PE,1697554899
128,longyearbyen,78.2186,15.6401,-4.09,50,75,6.17,SJ,1697555084
129,turgen,43.4006,77.5933,8.07,40,0,2.22,KZ,1697555498
130,san rafael,-34.6177,-68.3301,18.9,28,10,4.52,AR,1697555499
131,cartagena del chaira,1.3349,-74.8429,31.3,54,12,1.29,CO,1697554810
132,albu kamal,34.45,40.9186,25.93,34,0,1.45,SY,1697555358
133,loyew,51.9458,30.7953,8.48,52,57,4.45,BY,1697555499
134,bria,6.5423,21.9863,25.88,85,57,2.12,CF,1697555500
135,college,64.8569,-147.8028,2.67,79,100,2.06,US,1697555092
136,ilhabela,-23.7781,-45.3581,28.05,68,100,2.47,BR,1697555500
137,tarauaca,-8.1614,-70.7656,34.46,39,61,1.27,BR,1697555500
138,fortuna,40.5982,-124.1573,14.96,97,81,1.62,US,1697555010
139,badger,64.8,-147.5333,2.62,83,100,2.06,US,1697555082
140,klyuchi,52.2667,79.1667,11.11,73,7,3.22,RU,1697555110
141,tsiombe,-25.3,45.4833,22.99,84,100,4.5,MG,1697555502
142,iqaluit,63.7506,-68.5145,-3.15,68,100,1.54,CA,1697555025
143,vadso,70.0744,29.7487,1.49,80,40,4.12,NO,1697554964
144,sitka,57.0531,-135.33,10.94,87,100,0.0,US,1697555126
145,villarrica,-25.75,-56.4333,33.85,41,92,1.48,PY,1697555502
146,ilulissat,69.2167,-51.1,-9.99,48,0,1.54,GL,1697555091
147,yemetsk,63.4721,41.7941,3.41,83,100,2.13,RU,1697555229
148,hawaiian paradise park,19.5933,-154.9731,21.13,95,2,0.43,US,1697554961
149,fada,9.5667,8.3,28.96,57,86,0.85,NG,1697554949
150,nova vicosa,-17.8919,-39.3719,27.04,66,52,3.95,BR,1697554905
151,amos,48.5669,-78.1162,6.87,74,20,1.58,CA,1697555484
152,kyabe,9.4515,18.9449,32.55,48,89,2.0,TD,1697555504
153,pawcatuck,41.3773,-71.8337,16.12,77,0,5.14,US,1697555504
154,lihue,21.9789,-159.3672,20.77,83,0,3.6,US,1697555089
155,marand,38.4329,45.7749,16.94,47,21,0.75,IR,1697555505
156,teguise,29.0605,-13.564,24.12,83,20,3.09,ES,1697555421
157,ghat,24.9647,10.1728,33.5,13,26,2.51,LY,1697555505
158,juneau,58.3019,-134.4197,11.0,95,75,6.17,US,1697555289
159,katsuura,35.1333,140.3,19.47,80,14,2.84,JP,1697555080
160,puri,19.8,85.85,28.29,68,11,2.61,IN,1697555238
161,payakumbuh,-0.2202,100.6308,21.92,93,92,1.67,ID,1697555506
162,khandyga,62.6667,135.6,-9.52,85,100,1.12,RU,1697555507
163,port alfred,-33.5906,26.891,19.54,80,1,3.58,ZA,1697555507
164,belmonte,-15.8631,-38.8828,26.86,62,48,4.21,BR,1697554975
165,galle,6.0367,80.217,26.08,82,100,1.36,LK,1697554886
166,inirida,3.8653,-67.9239,33.01,52,19,0.45,CO,1697555508
167,timaru,-44.4,171.25,7.26,94,11,1.79,NZ,1697555476
168,whitehorse,60.7161,-135.0538,7.43,81,75,5.66,CA,1697554874
169,luanda,-8.8368,13.2343,28.0,74,75,4.63,AO,1697554983
170,arvika,59.6553,12.5852,11.34,69,59,3.26,SE,1697555508
171,selfoss,63.9331,-20.9971,9.47,94,100,10.57,IS,1697554938
172,cullman,34.1748,-86.8436,15.45,71,100,2.06,US,1697555249
173,whangarei,-35.7317,174.3239,14.64,97,100,2.08,NZ,1697555184
174,mungyeong,36.5946,128.1995,9.65,66,0,0.9,KR,1697555227
175,nema,57.5067,50.5011,4.3,69,100,11.63,RU,1697555509
176,alajarvi,63.0,23.8167,1.4,87,17,1.95,FI,1697555510
177,hithadhoo,-0.6,73.0833,27.48,75,43,6.74,MV,1697555215
178,aasiaat,68.7098,-52.8699,-15.19,80,40,3.26,GL,1697555090
179,itoman,26.1247,127.6694,24.01,62,20,3.09,JP,1697554956
180,tazovsky,67.4667,78.7,2.82,91,100,6.02,RU,1697555137
181,saurimo,-9.6608,20.3916,29.16,46,96,3.38,AO,1697555232
182,eldorado at santa fe,35.5264,-105.9347,17.29,41,0,5.14,US,1697555511
183,pangody,65.85,74.4859,4.52,96,100,4.46,RU,1697555512
184,mossel bay,-34.1831,22.146,24.96,74,1,4.29,ZA,1697555124
185,vilyuchinsk,52.9306,158.4028,7.18,86,88,1.87,RU,1697555103
186,remire-montjoly,4.9167,-52.2667,34.02,52,75,3.09,GF,1697555177
187,fale old settlement,-9.3852,-171.2468,27.53,80,100,5.39,TK,1697555083
188,aldinga beach,-35.2793,138.4604,13.9,82,0,4.0,AU,1697555513
189,hirara,24.8,125.2833,25.09,66,98,6.78,JP,1697555513
190,uturoa,-16.7333,-151.4333,25.91,80,100,7.05,PF,1697555513
191,tolanaro,-25.0319,46.9987,24.04,78,75,6.17,MG,1697555168
192,nar'yan-mar,67.6713,53.087,1.17,89,100,4.02,RU,1697555095
193,craiova,44.3167,23.8,15.55,44,0,3.6,RO,1697555514
194,tangalle,6.024,80.7911,26.09,87,100,2.41,LK,1697555514
195,saint-francois,46.4154,3.9054,20.69,61,0,3.6,FR,1697555178
196,chos malal,-37.3781,-70.2709,17.3,26,0,4.38,AR,1697555515
197,neiafu,-18.65,-173.9833,23.38,83,20,5.14,TO,1697555515
198,amahai,-3.3333,128.9167,26.07,87,69,0.96,ID,1697555515
199,pila,53.1515,16.7378,10.17,56,8,2.61,PL,1697555515
200,san antonio de pale,-1.4014,5.6325,25.78,80,32,4.13,GQ,1697555213
201,belyy yar,53.6039,91.3903,6.94,87,40,3.0,RU,1697555516
202,punta arenas,-53.15,-70.9167,12.06,62,75,11.83,CL,1697554970
203,lerwick,60.1545,-1.1494,11.0,82,94,3.04,GB,1697555116
204,laguna,38.421,-121.4238,17.27,86,0,0.0,US,1697555517
205,heroica caborca,30.7167,-112.15,28.08,32,5,1.22,MX,1697555517
206,tual,-5.6667,132.75,26.79,83,98,7.65,ID,1697555518
207,enewetak,11.3474,162.3373,28.78,74,41,5.84,MH,1697554981
208,bardai,11.65,7.2333,32.93,33,96,1.52,NG,1697555518
209,tofol,5.3248,163.0078,28.1,75,100,3.17,FM,1697555003
210,villa regina,-39.1,-67.0667,21.69,18,0,4.83,AR,1697555519
211,gadzhiyevo,69.2551,33.3362,2.41,68,97,7.43,RU,1697554975
212,pierre,44.3683,-100.351,12.93,82,0,3.09,US,1697555520
213,kadugli,11.0167,29.7167,29.04,59,100,3.14,SD,1697555358
214,freetown,8.484,-13.2299,28.84,74,75,4.12,SL,1697555125
215,usogorsk,63.4106,48.6872,3.15,87,100,4.22,RU,1697555521
216,fort st. john,56.2499,-120.8529,5.94,100,100,3.6,CA,1697554838
217,singkil,-7.9855,111.4161,23.67,82,91,2.72,ID,1697554951
218,luchegorsk,46.4764,134.2569,3.2,68,9,1.75,RU,1697555522
219,howard springs,-12.497,131.047,27.95,65,67,0.56,AU,1697555148
220,berriane,32.8265,3.7669,32.47,16,4,1.09,DZ,1697555522
221,subotica,46.1,19.6667,12.91,31,89,2.18,RS,1697555522
222,isafjordur,66.0755,-23.124,7.02,70,100,4.63,IS,1697555109
223,sao joao da barra,-21.6403,-41.0511,29.05,76,54,6.85,BR,1697554967
224,tchintabaraden,15.8969,5.7985,37.8,13,99,3.38,NE,1697555523
225,st. john's,47.5649,-52.7093,7.1,91,75,6.69,CA,1697554837
226,vrontados,38.4089,26.1328,20.92,64,0,1.54,GR,1697555524
227,nevinnomyssk,44.6267,41.9453,11.84,55,5,2.62,RU,1697555524
228,petropavlovsk-kamchatsky,53.0452,158.6483,6.36,88,75,2.24,RU,1697555150
229,manokwari,-0.8667,134.0833,26.25,78,79,0.79,ID,1697555524
230,yellowknife,62.456,-114.3525,1.34,100,75,2.06,CA,1697554883
231,brookings,44.3114,-96.7984,10.77,87,0,3.09,US,1697554720
232,yeppoon,-23.1333,150.7333,22.88,73,99,9.78,AU,1697554955
233,namibe,-15.1961,12.1522,21.38,65,41,4.57,AO,1697555525
234,limuru,-1.1,36.65,21.55,70,96,4.91,KE,1697555526
235,tejen,37.3834,60.5054,20.39,31,74,7.31,TM,1697555526
236,hachinohe,40.5,141.5,11.51,71,0,5.68,JP,1697555526
237,codrington,-38.2667,141.9667,5.74,91,0,3.24,AU,1697555086
238,port lincoln,-34.7333,135.8667,13.24,76,0,4.47,AU,1697555527
239,tamulte de las sabanas,18.2167,-92.7833,23.38,86,89,2.49,MX,1697555528
240,grand falls-windsor,48.9332,-55.6649,6.95,87,100,1.79,CA,1697555528
241,pacific grove,36.6177,-121.9166,14.75,93,0,3.13,US,1697555528
242,nuku'alofa,-21.1333,-175.2,22.19,83,40,7.2,TO,1697555528
243,city of balikpapan,-1.242,116.8942,28.97,84,20,3.09,ID,1697555529
244,khirkiyan,22.1667,76.85,24.1,62,49,1.83,IN,1697555529
245,queenstown,-31.8976,26.8753,20.29,40,3,3.02,ZA,1697555529
246,poronaysk,49.2167,143.1167,9.05,79,100,7.17,RU,1697555529
247,krasnyy chikoy,50.3643,108.7512,5.13,61,100,5.36,RU,1697555530
248,ar ruways,24.1103,52.7306,29.93,63,0,3.14,AE,1697555530
249,lokot',52.565,34.5776,4.96,57,14,5.02,RU,1697555530
250,kingston,17.997,-76.7936,33.47,63,20,2.06,JM,1697554932
251,flying fish cove,-10.4217,105.6791,25.82,88,100,3.6,CX,1697555017
252,zhuji,29.7188,120.2423,15.65,78,0,0.93,CN,1697555531
253,saint-joseph,-21.3667,55.6167,25.21,84,70,1.24,RE,1697555224
254,papao,-17.75,-149.55,23.82,83,83,8.39,PF,1697555233
255,tommot,58.9564,126.2925,-2.66,99,100,1.33,RU,1697555328
256,shiqian,27.5225,108.2281,18.8,71,17,1.38,CN,1697555532
257,obo,5.3998,26.4869,23.01,89,100,1.96,CF,1697555533
258,chonchi,-42.6128,-73.8092,12.56,61,73,2.23,CL,1697555074
259,skikda,36.8762,6.9092,29.37,37,78,1.68,DZ,1697555533
260,nemuro,43.3236,145.575,10.05,72,99,11.59,JP,1697554871
261,sandnessjoen,66.0217,12.6316,4.12,81,75,2.57,NO,1697555534
262,saipan,15.1355,145.701,27.39,83,0,3.6,MP,1697555103
263,navirai,-23.065,-54.1906,38.59,22,49,4.5,BR,1697555534
264,kayes,14.0,-11.0,35.79,29,4,2.58,ML,1697555535
265,renukut,24.2,83.0333,23.64,71,0,0.92,IN,1697555535
266,nyurba,63.2842,118.3319,-6.65,98,100,1.34,RU,1697555535
267,neon karlovasion,37.7903,26.7044,21.87,69,12,4.99,GR,1697555132
268,gaigeturi,33.4644,126.3183,17.81,66,0,2.32,KR,1697555536
269,east london,-33.0153,27.9116,19.52,77,0,7.2,ZA,1697555536
270,acarau,-2.8856,-40.12,31.88,51,29,7.41,BR,1697555178
271,mata-utu,-13.2816,-176.1745,27.22,79,98,9.62,WF,1697554769
272,tindouf,27.6711,-8.1474,34.25,15,40,6.17,DZ,1697555537
273,borazjan,29.2666,51.2159,30.73,27,49,3.01,IR,1697555537
274,makokou,0.5738,12.8642,23.53,97,98,0.94,GA,1697555537
275,kismayo,-0.3582,42.5454,27.02,81,45,4.93,SO,1697554978
276,nuuk,64.1835,-51.7216,-4.66,50,20,9.26,GL,1697555370
277,suva,-18.1416,178.4415,23.71,83,40,3.09,FJ,1697555442
278,'ain deheb,34.8422,1.547,27.19,16,40,7.28,DZ,1697555538
279,lamu,-2.2717,40.902,28.12,82,100,4.48,KE,1697555539
280,mwinilunga,-11.7358,24.4293,18.78,89,99,1.74,ZM,1697555539
281,nagqu,31.5,92.0,-1.99,82,100,4.0,CN,1697555539
282,salinas,36.6777,-121.6555,15.56,95,40,1.54,US,1697555539
283,susuman,62.7833,148.1667,-20.77,87,6,0.7,RU,1697555132
284,atar,20.5169,-13.0499,38.89,11,95,3.41,MR,1697555540
285,tikrit,34.6071,43.6782,26.59,31,0,2.25,IQ,1697555541
286,ola,59.5833,151.2833,-1.99,65,7,5.93,RU,1697554979
287,andergrove,-21.0833,149.1833,24.25,84,22,6.1,AU,1697555018
288,abu dhabi,24.4667,54.3667,33.3,58,0,3.09,AE,1697555542
289,choibalsan,48.0667,114.5,2.86,43,8,3.22,MN,1697554985
290,lakatoro,-16.0999,167.4164,25.24,87,62,3.6,VU,1697555543
291,mount gambier,-37.8333,140.7667,5.78,92,0,2.07,AU,1697555543
292,sault ste. marie,46.5168,-84.3333,8.16,81,75,2.57,CA,1697555260
293,tanabe,33.7333,135.3667,16.09,72,0,2.33,JP,1697555544
294,arar,30.9753,41.0381,28.01,20,0,0.0,SA,1697555544
295,jumla,29.2747,82.1838,7.68,90,71,1.39,NP,1697555544
296,kuantan,3.8077,103.326,26.3,83,81,1.36,MY,1697555545
297,castillos,-34.1667,-53.8333,15.84,56,30,7.72,UY,1697555113
298,kentau,43.5206,68.5094,14.12,35,5,1.14,KZ,1697555545
299,keflavik,64.0049,-22.5624,10.24,93,100,14.4,IS,1697554964
300,kerikeri,-35.2268,173.9474,17.17,93,100,1.34,NZ,1697555189
301,toliara,-23.35,43.6667,25.02,65,100,5.57,MG,1697555546
302,cascais,38.6979,-9.4215,21.95,95,75,10.73,PT,1697555546
303,adamovka,51.5223,59.9396,13.32,49,0,8.49,RU,1697555546
304,marijampole,54.5667,23.35,9.51,63,46,6.32,LT,1697555547
305,martapura,-3.4167,114.85,27.05,83,40,3.09,ID,1697555547
306,general cabrera,-32.8131,-63.8724,21.68,16,12,4.6,AR,1697555547
307,temiskaming shores,47.4938,-79.7153,0.89,72,9,1.57,CA,1697555548
308,weno,7.4515,151.8468,28.31,74,73,0.3,FM,1697555548
309,cullowhee,35.3137,-83.1765,12.98,77,100,1.54,US,1697555548
310,touros,-5.1989,-35.4608,29.2,56,72,7.65,BR,1697555508
311,zhelezinka,53.54,75.3072,11.8,66,25,2.02,KZ,1697555549
312,machina,13.1364,10.0492,37.82,18,97,4.09,NG,1697555549
313,west end,26.6833,-78.9667,23.99,52,85,5.27,BS,1697555549
314,iskateley,67.6803,53.1512,1.12,89,100,4.02,RU,1697555094
315,al mijlad,11.0333,27.7333,35.78,21,95,4.68,SD,1697555550
316,shingu,33.7333,135.9833,15.6,74,0,2.79,JP,1697555550
317,severo-yeniseyskiy,60.3725,93.0408,0.88,90,94,4.02,RU,1697554996
318,gulf park estates,30.3919,-88.7611,18.01,61,0,1.54,US,1697555550
319,vilyuysk,63.7553,121.6247,-2.12,52,100,5.36,RU,1697555012
320,basoko,1.2391,23.616,28.02,69,88,0.45,CD,1697555551
321,tuzhai,24.983,118.8319,20.83,70,98,5.89,CN,1697555551
322,littlefield,33.9173,-102.3249,16.27,39,0,5.5,US,1697555551
323,massawa,15.6097,39.45,32.16,57,72,3.0,ER,1697555552
324,ventspils,57.3894,21.5606,9.96,87,100,6.17,LV,1697555552
325,waycross,31.2136,-82.354,16.14,68,0,2.57,US,1697555552
326,kapa'a,22.0752,-159.319,24.13,74,0,2.36,US,1697554971
327,tanaina,61.6269,-149.4281,8.71,67,40,0.45,US,1697555553
328,maryville,35.7565,-83.9705,13.09,84,100,2.06,US,1697555438
329,port saint john's,-31.6229,29.5448,19.74,74,37,6.8,ZA,1697555554
330,daru,-9.0763,143.2092,25.34,84,99,4.08,PG,1697555554
331,tallinn,59.437,24.7535,7.75,66,20,2.06,EE,1697555383
332,berdigestyakh,62.0989,126.6992,-4.84,69,100,4.47,RU,1697555554
333,korla,41.7597,86.1469,13.04,31,4,0.79,CN,1697555115
334,greymouth,-42.4667,171.2,5.77,93,66,2.93,NZ,1697555219
335,calbuco,-41.768,-73.1273,9.68,76,27,5.74,CL,1697555555
336,catumbela,-12.4314,13.5472,24.52,74,91,3.24,AO,1697554959
337,al mutayrifi,25.4788,49.5576,34.19,48,0,5.53,SA,1697555555
338,la passe,45.5549,-0.8967,25.57,47,100,7.61,FR,1697555205
339,bengkulu,-3.8004,102.2655,24.59,93,86,1.18,ID,1697555556
340,lompoc,34.6391,-120.4579,21.08,85,20,3.58,US,1697555135
341,dryden,49.7833,-92.7503,6.16,93,0,3.6,CA,1697555556
342,serafimovich,49.5786,42.736,8.98,30,9,10.28,RU,1697555556
343,trapani,37.8333,12.6667,27.16,73,20,3.09,IT,1697555557
344,porto novo,6.4965,2.6036,24.9,87,100,1.17,BJ,1697555161
345,babana,10.4295,3.815,34.27,37,89,3.5,NG,1697555557
346,bodaybo,57.8506,114.1933,0.82,91,80,0.89,RU,1697555198
347,bukoba,-1.3317,31.8122,24.48,62,17,2.95,TZ,1697555558
348,al khums,32.6486,14.2619,28.25,43,0,3.96,LY,1697555558
349,marabba,12.35,32.1833,33.08,40,89,5.43,SD,1697555412
350,pimenta bueno,-11.6725,-61.1936,37.71,30,81,1.76,BR,1697555558
351,qashyr,53.0675,76.1036,12.03,63,29,1.68,KZ,1697555559
352,plastun,44.7561,136.2939,6.72,63,3,4.02,RU,1697555559
353,esil,51.9556,66.4042,13.15,66,10,4.32,KZ,1697555559
354,bonanza,14.0289,-84.591,27.11,74,94,1.71,NI,1697555559
355,chimichagua,9.2578,-73.8123,31.51,60,57,0.46,CO,1697555560
356,mitu,1.1983,-70.1733,32.41,51,16,0.93,CO,1697555560
357,moyale,3.5167,39.0584,24.06,67,93,2.4,KE,1697555560
358,wenling,28.3669,121.36,18.16,80,1,1.56,CN,1697555406
359,rio claro,-22.4114,-47.5614,33.21,37,100,3.28,BR,1697554857
360,san luis de la loma,17.2706,-100.8939,26.84,79,100,0.38,MX,1697555112
361,mount isa,-20.7333,139.5,24.87,18,2,6.17,AU,1697555169
362,quthing,-30.4,27.7003,19.17,39,46,0.87,LS,1697555561
363,kangding,30.0513,101.9603,11.37,93,92,2.87,CN,1697555561
364,formosa,-26.1775,-58.1781,28.99,61,0,7.72,AR,1697554968
365,egilsstadir,65.2653,-14.3948,2.94,99,100,2.6,IS,1697555235
366,stoughton,42.1251,-71.1023,15.18,79,40,3.09,US,1697555562
367,happy valley-goose bay,53.3168,-60.3315,3.17,75,75,3.6,CA,1697555562
368,port augusta,-32.5,137.7667,13.82,36,0,2.85,AU,1697555117
369,rio grande,-32.035,-52.0986,23.06,73,100,7.91,BR,1697555149
370,cabo san lucas,22.8909,-109.9124,30.42,81,0,3.13,MX,1697554817
371,olyokminsk,60.3736,120.4264,1.11,67,100,3.58,RU,1697555564
372,inongo,-1.95,18.2667,25.46,81,100,1.87,CD,1697555564
373,prince rupert,54.3161,-130.3201,12.83,69,100,14.92,CA,1697554755
374,umluj,25.0213,37.2685,27.63,62,0,5.52,SA,1697555566
375,qui nhon,13.7667,109.2333,25.71,84,100,1.88,VN,1697555566
376,preobrazheniye,42.9019,133.9064,9.69,51,4,3.58,RU,1697555175
377,banda aceh,5.5577,95.3222,26.33,75,100,2.67,ID,1697555096
378,purpe,64.4803,76.6897,5.73,94,100,6.48,RU,1697555567
379,sydney,-33.8679,151.2073,15.4,79,89,2.24,AU,1697554766
380,guarapari,-20.6667,-40.4975,29.94,60,94,8.22,BR,1697555567
381,cidreira,-30.1811,-50.2056,18.94,97,100,3.86,BR,1697555064
382,simao dias,-10.7383,-37.8111,31.81,28,86,6.99,BR,1697555414
383,arteche,12.2645,125.4048,26.03,81,71,2.07,PH,1697555568
384,dudinka,69.4058,86.1778,-0.18,98,98,2.68,RU,1697554978
385,cill airne,52.05,-9.5167,11.03,93,75,5.66,IE,1697555568
386,bondo,3.8146,23.6866,27.71,65,96,0.56,CD,1697555569
387,san pedro de macoris,18.4616,-69.2972,32.34,63,16,3.79,DO,1697555569
388,paraty,-23.2178,-44.7131,29.17,70,100,1.25,BR,1697555280
389,santa rosa de calamuchita,-32.0691,-64.5363,24.84,10,58,2.57,AR,1697555569
390,port douglas,-16.4833,145.4667,22.62,78,84,2.93,AU,1697555508
391,lincheng,19.9078,109.6858,25.27,90,100,9.66,CN,1697555570
392,la'ie,21.6477,-157.9253,24.12,86,24,3.14,US,1697555570
393,manta,-0.95,-80.7333,28.88,65,75,1.03,EC,1697555570
394,mournies,35.4764,24.0092,24.35,83,20,3.09,GR,1697555145
395,holualoa,19.6228,-155.9522,21.91,80,0,3.58,US,1697555118
396,guerrero negro,27.9769,-114.0611,20.98,80,19,3.9,MX,1697555571
397,fundong,6.25,10.2667,20.47,83,72,0.99,CM,1697555571
398,quesnel,52.9999,-122.5029,5.28,100,0,1.03,CA,1697555571
399,grabouw,-34.1515,19.0151,24.22,45,0,2.04,ZA,1697555572
400,anna regina,7.2644,-58.5077,29.8,71,48,2.87,GY,1697555572
401,hasaki,35.7333,140.8333,16.22,67,21,3.64,JP,1697555572
402,port arthur,38.8,121.2667,19.12,81,100,7.23,CN,1697555109
403,sao joao dos patos,-6.495,-43.7022,36.28,20,7,3.82,BR,1697555507
404,westport,41.1415,-73.3579,16.06,68,0,2.57,US,1697555573
405,richards bay,-28.783,32.0377,18.25,83,100,5.27,ZA,1697555573
406,seaside,36.6111,-121.8516,14.52,93,0,0.0,US,1697555430
407,barakani,-12.1356,44.4317,26.14,76,99,3.19,KM,1697555574
408,kharp,66.8014,65.8081,1.16,100,100,0.75,RU,1697555574
409,abeche,13.8292,20.8324,37.22,10,12,4.45,TD,1697555574
410,ati,13.2154,18.3353,38.73,13,24,4.68,TD,1697555574
411,sumbe,-11.2061,13.8437,25.2,77,99,4.37,AO,1697555141
412,jiangzi,28.95,89.6333,1.24,48,40,2.67,CN,1697555575
413,nadym,65.5333,72.5167,5.38,97,100,5.48,RU,1697555189
414,vidalia,32.2177,-82.4135,16.06,59,0,2.06,US,1697555575
415,labrador city,52.9463,-66.9114,3.46,70,100,2.3,CA,1697555410
416,barnard castle,54.5415,-1.919,12.24,79,100,6.55,GB,1697555576
417,elliot,-31.3333,27.85,16.85,52,8,2.81,ZA,1697555576
418,ghanzi,-21.5667,21.7833,32.21,6,3,4.79,BW,1697555083
419,laojunmiao,39.8333,97.7333,2.67,72,99,0.6,CN,1697555114
420,moapa valley,36.5805,-114.4703,23.98,20,96,0.97,US,1697555577
421,sisimiut,66.9395,-53.6735,-6.49,78,32,2.05,GL,1697555117
422,terenozek,45.05,64.9833,12.76,43,0,3.62,KZ,1697555577
423,guer,47.9062,-2.1231,20.61,57,100,7.43,FR,1697555577
424,as sulayyil,20.4607,45.5779,34.14,10,0,4.56,SA,1697555578
425,meadow lakes,61.6247,-149.6011,6.96,68,40,0.45,US,1697555578
426,newman,37.3138,-121.0208,16.19,83,0,0.89,US,1697555002
427,acajutla,13.5928,-89.8275,26.23,70,100,3.59,SV,1697555578
428,nushki,29.5542,66.0215,21.7,13,9,2.56,PK,1697555579
429,linxia chengguanzhen,35.6003,103.2064,8.76,71,100,1.53,CN,1697555579
430,piui,-20.4653,-45.9581,31.79,34,100,2.61,BR,1697555446
431,pariaman,-0.619,100.12,26.03,89,64,0.94,ID,1697555190
432,shizuishan,39.2333,106.7694,11.93,21,13,1.35,CN,1697555580
433,princeville,45.7668,-61.2985,9.14,96,100,3.09,CA,1697554995
434,malvan,16.0667,73.4667,28.02,81,67,1.54,IN,1697555580
435,rosarito,32.3333,-117.0333,17.53,72,100,1.94,MX,1697555581
436,volosovo,59.4333,29.4833,5.68,74,89,3.68,RU,1697555581
437,mahibadhoo,3.7833,72.9667,28.43,70,79,5.22,MV,1697555221
438,esmeraldas,-19.7625,-44.3139,30.48,31,11,2.49,BR,1697555491
439,guasdualito,7.2424,-70.7324,30.48,66,60,0.74,VE,1697555582
440,khorinsk,52.1657,109.7726,3.9,84,96,6.26,RU,1697555582
441,onguday,50.75,86.15,5.01,52,42,1.13,RU,1697555582
442,mabaruma,8.2,-59.7833,32.06,58,99,1.45,GY,1697555583
443,kristiansund,63.1115,7.732,8.36,81,75,8.75,NO,1697555583
444,ulan bator,47.9077,106.8832,3.07,32,40,5.0,MN,1697555076
445,kenai,60.5544,-151.2583,5.08,93,75,1.54,US,1697555492
446,yaren,-0.5472,166.916,27.47,80,100,10.16,NR,1697555584
447,rukungiri,-0.8411,29.9419,19.16,86,100,1.18,UG,1697555584
448,nalut,30.3333,10.85,31.27,10,2,0.88,LY,1697555584
449,oyem,1.5995,11.5793,23.62,92,77,1.2,GA,1697555585
450,balikpapan,-1.2675,116.8289,28.55,84,20,3.09,ID,1697555585
451,hegang,47.4,130.3667,4.43,40,95,1.42,CN,1697555585
452,beaver dam,43.4578,-88.8373,8.73,94,100,0.0,US,1697555586
453,harnosand,62.6323,17.9379,3.0,97,100,0.8,SE,1697555586
454,bodo,67.28,14.405,4.02,73,0,5.66,NO,1697555076
455,valparaiso,-33.0393,-71.6273,17.22,59,0,6.17,CL,1697555587
456,anda,46.4,125.3167,10.82,57,100,4.41,CN,1697555587
457,kupang,-10.1667,123.5833,27.32,78,29,3.6,ID,1697555194
458,minas de marcona,-15.2119,-75.1103,19.1,68,44,3.46,PE,1697555108
459,saldanha,-33.0117,17.9442,29.03,77,36,5.57,ZA,1697554928
460,timbuktu,16.7735,-3.0074,38.18,19,22,1.14,ML,1697555588
461,christchurch,-43.5333,172.6333,6.64,86,42,2.57,NZ,1697555026
462,lospalos,-8.5186,127.0025,21.24,90,38,2.49,TL,1697555589
463,lannion,48.75,-3.4167,19.97,67,0,5.14,FR,1697555589
464,lotoshino,56.2267,35.6414,3.1,85,100,7.42,RU,1697555589
465,ponta delgada,37.7333,-25.6667,22.4,83,40,5.66,PT,1697555590
466,turpan,42.9333,89.1667,16.17,27,0,2.24,CN,1697555590
467,muang phonsavan,19.45,103.2167,16.31,95,81,1.07,LA,1697555590
468,cranbrook,49.4999,-115.7688,6.41,83,72,2.76,CA,1697555336
469,oodweyne,9.4092,45.064,29.6,29,40,6.42,SO,1697555591
470,venustiano carranza,19.43,-99.0992,11.99,76,100,2.06,MX,1697555534
471,igarka,67.4667,86.5833,0.42,91,100,3.72,RU,1697555084
472,kirakira,-10.4544,161.9205,25.66,86,99,1.86,SB,1697555591
473,perry,37.2506,-83.1999,12.1,66,100,1.49,US,1697555022
474,saint-philippe,-21.3585,55.7679,24.77,85,69,2.74,RE,1697555592
475,bafoulabe,13.8065,-10.8321,37.34,28,8,0.71,ML,1697555592
476,lively,46.4334,-81.1498,4.51,66,0,0.81,CA,1697555592
477,gmunden,47.9189,13.7975,11.21,71,100,1.3,AT,1697555593
478,vokhtoga,58.8147,41.0461,3.38,73,100,5.51,RU,1697555593
479,khilok,51.3674,110.4676,2.6,69,100,4.02,RU,1697555593
480,kolosovka,56.4678,73.611,10.04,79,8,3.34,RU,1697555594
481,birine,35.635,3.225,29.85,15,51,6.42,DZ,1697555388
482,dunedin,-45.8742,170.5036,6.0,88,21,1.87,NZ,1697555594
483,altamira,-3.2033,-52.2064,38.55,31,16,1.48,BR,1697555594
484,bairnsdale,-37.8333,147.6167,5.59,95,0,1.76,AU,1697555595
485,dolinsk,47.35,142.8,6.51,55,92,8.84,RU,1697555595
486,ciutadella,40.0011,3.8414,24.45,71,100,5.21,ES,1697555595
487,pontiac,42.6389,-83.2911,10.42,82,100,3.6,US,1697555353
488,ain el bya,35.8039,-0.3018,33.27,40,82,4.01,DZ,1697555596
489,roswell,34.0232,-84.3616,15.31,74,0,2.06,US,1697555596
490,dauphin,51.1494,-100.0502,11.56,68,100,1.75,CA,1697555356
491,san julian,21.0167,-102.1667,12.71,63,96,2.52,MX,1697555092
492,talitsa,56.8804,60.0213,11.3,62,5,5.43,RU,1697555596
493,lampasas,31.2168,-98.2336,16.69,45,0,2.06,US,1697555597
494,villa vasquez,19.7411,-71.4464,30.72,52,28,0.64,DO,1697555597
495,santa maria,-29.6842,-53.8069,20.21,98,100,1.04,BR,1697555597
496,franceville,-1.6333,13.5836,23.81,94,97,0.8,GA,1697555598
497,swift current,50.2834,-107.8014,14.05,55,57,5.17,CA,1697555337
498,chul'man,56.8479,124.9104,-2.03,63,100,2.24,RU,1697555598
499,ulladulla,-35.35,150.4667,13.2,64,100,2.81,AU,1697555598
500,jutai,-5.1833,-68.9,34.01,47,83,1.06,BR,1697555599
501,nandurbar,21.3667,74.25,28.98,48,48,1.26,IN,1697555599
502,isiro,2.7739,27.616,27.35,63,61,1.35,CD,1697555599
503,ambovombe,-25.1667,46.0833,22.18,89,100,6.44,MG,1697555600
504,lodeynoye pole,60.726,33.5531,3.73,92,100,3.69,RU,1697555600
505,safi,32.1667,-8.8333,27.23,37,4,9.63,MA,1697555600
506,sambava,-14.2667,50.1667,24.4,80,76,1.58,MG,1697555601
507,oum hadjer,13.2954,19.6966,38.21,12,17,3.75,TD,1697555602
508,waddan,29.1614,16.139,30.61,14,0,2.67,LY,1697555603
509,sao vicente,-23.9631,-46.3919,27.77,57,100,8.23,BR,1697555027
510,coquimbo,-29.9533,-71.3436,15.61,70,100,3.33,CL,1697555427
511,puerto gaitan,4.3133,-72.0816,30.46,63,28,0.53,CO,1697555407
512,kiunga,-6.1219,141.2906,22.63,100,94,0.5,PG,1697555112
513,mapimi,25.8167,-103.85,16.86,47,0,2.1,MX,1697555604
514,puerto baquerizo moreno,-0.9,-89.6,26.55,74,40,5.14,EC,1697555143
515,huaraz,-9.5333,-77.5333,17.5,50,45,0.66,PE,1697555605
516,rikaze,29.25,88.8833,7.05,42,70,3.53,CN,1697555123
517,miahuatlan de porfirio diaz,16.3333,-96.6,17.52,75,76,3.69,MX,1697555605
518,hadibu,12.65,54.0333,27.98,69,77,1.71,YE,1697555606
519,khovd,48.0056,91.6419,4.23,34,30,0.48,MN,1697555606
520,oranjemund,-28.55,16.4333,21.53,60,5,7.03,NA,1697555606
521,feijo,-8.1642,-70.3536,31.82,46,79,1.45,BR,1697555636
522,taltal,-25.4,-70.4833,18.36,66,48,1.71,CL,1697555636
523,puerto aysen,-45.4,-72.7,12.58,89,79,0.45,CL,1697555636
524,ha tinh,18.3333,105.9,24.52,87,100,2.23,VN,1697555637
525,hovd,48.0056,91.6419,4.23,34,30,0.48,MN,1697555637
526,lebork,54.5392,17.7501,10.75,74,100,4.9,PL,1697555637
527,al bayda',32.7627,21.7551,20.56,61,0,5.13,LY,1697555637
528,howrah,22.5892,88.3103,29.0,74,20,2.06,IN,1697555128
529,peace river,56.2501,-117.286,9.17,100,100,1.03,CA,1697555165
530,pitimbu,-7.4706,-34.8086,31.33,53,54,7.97,BR,1697555638
531,isangel,-19.55,169.2667,22.54,86,17,3.16,VU,1697555639
532,chui,-33.6971,-53.4616,17.95,52,91,6.59,UY,1697555107
533,lloydminster,53.2835,-110.0016,9.12,66,75,3.09,CA,1697555639
534,saynshand,44.8824,110.1163,6.1,29,0,3.99,MN,1697555180
535,tocopilla,-22.092,-70.1979,21.09,62,13,3.09,CL,1697555191
536,puerto francisco de orellana,-0.4667,-76.9667,30.03,74,75,1.03,EC,1697555640
537,trondheim,63.4305,10.3951,8.05,91,98,1.79,NO,1697555640
538,tazacorte,28.629,-17.9293,27.3,65,75,3.13,ES,1697555640
539,manthani,18.65,79.6667,25.76,68,17,1.74,IN,1697555640
540,klaksvik,62.2266,-6.589,8.51,78,100,5.18,FO,1697555562
541,khawr fakkan,25.3313,56.342,31.03,66,0,1.32,AE,1697555641
542,barcelos,41.5388,-8.6151,21.08,96,100,9.77,PT,1697555641
543,inari,68.906,27.0288,-0.89,97,90,1.37,FI,1697555641
544,illizi,26.4833,8.4667,34.89,11,65,6.02,DZ,1697555642
545,zaragoza,41.6561,-0.8773,25.25,51,20,7.2,ES,1697555642
546,at taj,24.2049,23.2857,29.52,14,0,4.66,LY,1697555642
547,cambria,35.5641,-121.0808,20.68,72,2,2.26,US,1697555092
548,mitchell,43.7094,-98.0298,9.85,64,94,4.33,US,1697554906
549,sharkan,57.2989,53.8712,8.08,69,99,12.04,RU,1697555643
550,puerto leguizamo,-0.1934,-74.7819,32.89,49,54,0.7,CO,1697555091
551,nova sintra,14.8667,-24.7167,25.53,69,1,5.66,CV,1697555181
552,mason city,43.1536,-93.201,12.07,74,0,2.57,US,1697555536
553,piti village,13.4626,144.6933,27.49,90,0,3.09,GU,1697555644
554,north bend,43.4065,-124.2243,14.4,100,20,3.09,US,1697555644
555,al harithah,30.7186,47.7208,27.98,28,0,3.09,IQ,1697555644
556,douz,33.4663,9.0203,33.9,10,0,2.22,TN,1697555645
557,santo antonio do ica,-3.1022,-67.9397,34.85,45,40,0.86,BR,1697555645
558,kalix,65.853,23.1565,1.4,78,33,3.57,SE,1697555645
559,nicholasville,37.8806,-84.573,12.08,80,100,2.57,US,1697555645
560,omaruru,-21.4333,15.9333,34.58,4,68,3.0,NA,1697555399
561,labytnangi,66.6572,66.4183,0.97,100,100,1.03,RU,1697555646
562,figuig (centre),32.1089,-1.2286,27.85,17,17,2.02,MA,1697555646
563,jijiga,9.35,42.8,24.96,33,72,5.38,ET,1697555646
564,dodge city,37.7528,-100.0171,14.14,53,0,5.14,US,1697555647
565,okha,53.5739,142.9478,5.23,92,77,5.45,RU,1697555076
566,pieksamaki,62.3,27.1333,2.88,64,96,3.59,FI,1697555647
567,pisco,-13.7,-76.2167,20.03,83,100,1.54,PE,1697555178
568,matamey,13.4231,8.4749,37.35,15,63,5.44,NE,1697555648
569,margate,51.3813,1.3862,14.06,67,99,2.68,GB,1697554887
570,kulu,39.0951,33.0799,17.3,48,41,1.32,TR,1697555648
571,kailua-kona,19.6406,-155.9956,23.98,82,0,3.58,US,1697555061
